{"type":"Feature", "properties":{"name":"Afghanistan", "noCamps": 9, "lily": 0, "unconfirmed": 0}, "geometry":{"type":"Point", "coordinates": [65.390623, 33.13755119234614], "id" : "afghanistan"}},
		{"type":"Feature", "properties":{"name":"Algeria", "noCamps": 0, "lily": 0, "unconfirmed": 1}, "geometry":{"type":"Point", "coordinates": [2.988281, 27.488781], "id" : "American Samoa"}},
		{"type":"Feature", "properties":{"name":"American Samoa", "noCamps": 0, "lily": 1, "unconfirmed": 0}, "geometry":{"type":"Point", "coordinates": [-171.342773, -14.306969], "id" : "american samoa"}},
		{"type":"Feature", "properties":{"name":"Antarctica", "noCamps": 0, "lily": 1, "unconfirmed": 0}, "geometry":{"type":"Point", "coordinates": [36.210938, -82.118384], "id" : "antarctica"}},
		{"type":"Feature", "properties":{"name":"Argentina", "noCamps": 0, "lily": 0, "unconfirmed": 1}, "geometry":{"type":"Point", "coordinates": [-65.039062, -37.439974], "id" : "argentina"}},
		{"type":"Feature", "properties":{"name":"Aruba", "noCamps": 0, "lily": 1, "unconfirmed": 0}, "geometry":{"type":"Point", "coordinates": [-69.971924, 12.511665], "id" : "aruba"}},
		{"type":"Feature", "properties":{"name":"Ascension Island", "noCamps": 1, "lily": 0, "unconfirmed": 0}, "geometry":{"type":"Point", "coordinates": [-14.370117, -7.928675], "id" : "ascension island"}},
		{"type":"Feature", "properties":{"name":"Australia", "noCamps": 3, "lily": 3, "unconfirmed": 0}, "geometry":{"type":"Point", "coordinates": [133.59375, -24.527135], "id" : "australia"}},
		{"type":"Feature", "properties":{"name":"Azerbaijan", "noCamps": 0, "lily": 0, "unconfirmed": 1}, "geometry":{"type":"Point", "coordinates": [47.900391, 40.513799], "id" : "Azerbaijan"}},
		{"type":"Feature", "properties":{"name":"The Bahamas", "noCamps": 6, "lily": 0, "unconfirmed": 0}, "geometry":{"type":"Point", "coordinates": [-78.046875, 24.731864], "id" : "bahamas"}},
		{"type":"Feature", "properties":{"name":"Bahrain", "noCamps" : 7, "lily": 3, "unconfirmed": 0}, "geometry":{"type":"Point", "coordinates": [50.537107375000005, 26.10612083235552], "id" : "bahrain"}},
		{"type":"Feature", "properties":{"name":"Belguim", "noCamps" : 8, "lily": 2, "unconfirmed": 0}, "geometry":{"type":"Point", "coordinates": [4.416504, 50.736455], "id" : "belguim"}},
		{"type":"Feature", "properties":{"name":"Benin", "noCamps" : 0, "lily": 0, "unconfirmed": 1}, "geometry":{"type":"Point", "coordinates": [2.197266, 10.185187], "id" : "benin"}},
		{"type":"Feature", "properties":{"name":"Botswana", "noCamps" : 0, "lily": 0, "unconfirmed": 1}, "geometry":{"type":"Point", "coordinates": [23.818359, -21.575719], "id" : "botswana"}},
		{"type":"Feature", "properties":{"name":"British Indian Ocean Territory", "noCamps" : 1, "lily": 0, "unconfirmed": 0}, "geometry":{"type":"Point", "coordinates": [-7.1848, 72.244], "id" : "BR indian ocean terr"}},
		{"type":"Feature", "properties":{"name":"Brazil", "noCamps" : 0, "lily": 0, "unconfirmed": 1}, "geometry":{"type":"Point", "coordinates": [-55.546875, -10.833306], "id" : "brazil"}},
		{"type":"Feature", "properties":{"name":"Brunei", "noCamps" : 0, "lily": 0, "unconfirmed": 1}, "geometry":{"type":"Point", "coordinates": [114.625854, 4.417614], "id" : "brunei"}},
		{"type":"Feature", "properties":{"name":"Bulgaria", "noCamps" : 1, "lily": 3, "unconfirmed": 0}, "geometry":{"type":"Point", "coordinates": [42.682435, 24.829102], "id" : "bulgaria"}},
		{"type":"Feature", "properties":{"name":"Burkina Faso", "noCamps" : 0, "lily": 1, "unconfirmed": 0},
		"geometry":{"type":"Point", "coordinates": [-1.384277, 12.661778], "id" : "burkina faso"}},
		{"type":"Feature", "properties":{"name":"Burundi", "noCamps" : 0, "lily": 1, "unconfirmed": 0},
		"geometry":{"type":"Point", "coordinates": [29.794922, -3.601142], "id" : "burundi"}},
		{"type":"Feature", "properties":{"name":"Cambodia", "noCamps" : 0, "lily": 1, "unconfirmed": 0},
		"geometry":{"type":"Point", "coordinates": [104.93042, 12.479487], "id" : "cambodia"}},
		{"type":"Feature", "properties":{"name":"Cameroon", "noCamps" : 0, "lily": 0, "unconfirmed": 1},
		"geometry":{"type":"Point", "coordinates": [12.700195, 5.090944], "id" : "cameroon"}},
		{"type":"Feature", "properties":{"name":"Canada", "noCamps" : 1, "lily": 1, "unconfirmed": 0}, "geometry":{"type":"Point", "coordinates": [-103.227539, 56.24335], "id" : "canada"}},
		{"type":"Feature", "properties":{"name":"Cape Verde", "noCamps" : 0, "lily": 0, "unconfirmed": 1}, "geometry":{"type":"Point", "coordinates": [-23.708496, 15.178181], "id" : "cape verde"}},
		{"type":"Feature", "properties":{"name":"Central African Republic", "noCamps" : 0, "lily" : 2 , "unconfirmed": 0 }, "geometry":{"type":"Point", "coordinates": [20.522461, 6.620957], "id" : "central african rep."}},
		{"type":"Feature", "properties":{"name":"Chad", "noCamps" : 0, "lily" : 1 , "unconfirmed": 0 }, "geometry":{"type":"Point", "coordinates": [18.632813, 14.392118], "id" : "chad"}},
		{"type":"Feature", "properties":{"name":"Chad", "noCamps" : 0, "lily" : 1 , "unconfirmed": 0 }, "geometry":{"type":"Point", "coordinates": [18.632813, 14.392118], "id" : "chad"}},
		{"type":"Feature", "properties":{"name":"Cocos Island", "noCamps" : 0, "lily" : 0 , "unconfirmed": 1}, "geometry":{"type":"Point", "coordinates": [96.943359, -12.297068], "id" : "coco"}},
		{"type":"Feature", "properties":{"name":"Colombia", "noCamps" : 0, "lily" : 4, "unconfirmed": 0}, "geometry":{"type":"Point", "coordinates": [-72.949219, 3.513421], "id" : "colombia"}},
		{"type":"Feature", "properties":{"name":"The Democratic Republic of Congo", "noCamps" : 0, "lily" : 1, "unconfirmed": 0}, "geometry":{"type":"Point", "coordinates": [23.730469, -4.390229], "id" : "rep. congo"}},
		{"type":"Feature", "properties":{"name":"Costa Rica", "noCamps" : 0, "lily" : 1, "unconfirmed": 0}, "geometry":{"type":"Point", "coordinates": [-83.759766, 9.579084], "id" : "costa rica"}},
		{"type":"Feature", "properties":{"name":"Cote d'Ivoire", "noCamps" : 0, "lily" : 0, "unconfirmed": 1}, "geometry":{"type":"Point", "coordinates": [-5.229492, 7.188101], "id" : "cote"}},
		{"type":"Feature", "properties":{"name":"Cuba", "noCamps" : 1, "lily" : 0, "unconfirmed": 0}, "geometry":{"type":"Point", "coordinates": [-78.530273, 21.983801], "id" : "cuba"}},
		{"type":"Feature", "properties":{"name":"Denmark", "noCamps" : 0, "lily" : 2, "unconfirmed": 0}, "geometry":{"type":"Point", "coordinates": [9.492188, 55.973798], "id" : "denmark"}},
		{"type":"Feature", "properties":{"name":"Djibouti", "noCamps" : 1, "lily": 1, "unconfirmed": 0}, "geometry":{"type":"Point", "coordinates": [42.714844, 11.953349], "id" : "djibouti"}},
		{"type":"Feature", "properties":{"name":"Dominican Republic", "noCamps" : 0, "lily" : 0, "unconfirmed": 1}, "geometry":{"type":"Point", "coordinates": [-70.795898, 19.062118], "id" : "dominican republic"}},
		{"type":"Feature", "properties":{"name":"Egypt", "noCamps" : 0, "lily" : 2, "unconfirmed": 0}, "geometry":{"type":"Point", "coordinates": [28.828125, 25.799891], "id" : "egypt"}},
		{"type":"Feature", "properties":{"name":"El Salvador", "noCamps" : 0, "lily" : 1, "unconfirmed": 0}, "geometry":{"type":"Point", "coordinates": [-88.901367, 13.496473], "id" : "el salvador"}},
		{"type":"Feature", "properties":{"name":"", "noCamps" : 0, "lily" : 1, "unconfirmed": 0}, "geometry":{"type":"Point", "coordinates": [-88.901367, 13.496473], "id" : "el salvador"}},
		{"type":"Feature", "properties":{"name":"Equatorial Guinea", "noCamps" : 0, "lily" : 0, "unconfirmed": 1}, "geometry":{"type":"Point", "coordinates": [10.50293, 1.559866], "id" : "equatorial guinea"}},
		{"type":"Feature", "properties":{"name":"Ethiopia", "noCamps" : 0, "lily" : 2, "unconfirmed": 0}, "geometry":{"type":"Point", "coordinates": [39.199219, 8.667918], "id" : "ethiopia"}},
		{"type":"Feature", "properties":{"name":"Gabon", "noCamps" : 0, "lily" : 1, "unconfirmed": 0}, "geometry":{"type":"Point", "coordinates": [10.810547, -0.703107], "id" : "gabon"}},
		{"type":"Feature", "properties":{"name":"Georgia", "noCamps" : 0, "lily" : 1, "unconfirmed": 0}, "geometry":{"type":"Point", "coordinates": [43.615723, 42.000325], "id" : "georgia"}},
		{"type":"Feature", "properties":{"name":"Germany", "noCamps" : 142, "lily": 34, "unconfirmed": 0}, "geometry":{"type":"Point", "coordinates": [10.195313, 50.513427], "id" : "germany"}},
		{"type":"Feature", "properties":{"name":"Ghana", "noCamps" : 0, "lily": 1, "unconfirmed": 0}, "geometry":{"type":"Point", "coordinates": [-1.318359, 8.29847], "id" : "ghana"}},

		{"type":"Feature", "properties":{"name":"Greece", "noCamps" : 4, "lily": 2, "unconfirmed": 0}, "geometry":{"type":"Point", "coordinates": [21.972656, 39.300299], "id" : "greece"}},
		{"type":"Feature", "properties":{"name":"Greenland", "noCamps" : 1, "lily": 0, "unconfirmed": 0}, "geometry":{"type":"Point", "coordinates": [-41.132812,71.746432], "id" : "greenland"}},
		{"type":"Feature", "properties":{"name":"Guam", "noCamps" : 32, "lily": 7, "unconfirmed": 0}, "geometry":{"type":"Point", "coordinates": [144.777832, 13.432367], "id" : "guam"}},
		{"type":"Feature", "properties":{"name":"Honduras", "noCamps" : 1, "lily": 1, "unconfirmed": 0}, "geometry":{"type":"Point", "coordinates": [-87.011719, 14.774883], "id" : "honduras"}},
		{"type":"Feature", "properties":{"name":"Hong Kong", "noCamps" : 0, "lily": 1, "unconfirmed": 0}, "geometry":{"type":"Point", "coordinates": [114.117737, 22.390714], "id" : "hong kong"}},
		{"type":"Feature", "properties":{"name":"Hungary", "noCamps" : 0, "lily": 1, "unconfirmed": 0}, "geometry":{"type":"Point", "coordinates": [19.072266, 47.040182], "id" : "hungary"}},
		{"type":"Feature", "properties":{"name":"Iceland", "noCamps" : 1, "lily": 0, "unconfirmed": 0}, "geometry":{"type":"Point", "coordinates": [-18.457031, 64.848937], "id" : "iceland"}},
		{"type":"Feature", "properties":{"name":"India", "noCamps" : 0, "lily": 0, "unconfirmed": 1}, "geometry":{"type":"Point", "coordinates": [78.925781, 21.616579], "id" : "india"}},
		{"type":"Feature", "properties":{"name":"Indonesia", "noCamps" : 0, "lily": 0, "unconfirmed": 1}, "geometry":{"type":"Point", "coordinates": [121.728516, -3.074695], "id" : "indonesia"}},
		{"type":"Feature", "properties":{"name":"Iraq", "noCamps": 5, "lily": 2, "unconfirmed": 0}, "geometry":{"type":"Point", "coordinates": [43.242185500000005, 33.06392419812062], "id" : "iraq"}},
		{"type":"Feature", "properties":{"name":"Ireland", "noCamps": 0, "lily": 0, "unconfirmed": 1}, "geometry":{"type":"Point", "coordinates": [43.242185500000005, 33.06392419812062], "id" : "ireland"}},
		{"type":"Feature", "properties":{"name":"Israel", "noCamps": 0, "lily": 9, "unconfirmed": 0}, "geometry":{"type":"Point", "coordinates": [43.242185500000005, 33.06392419812062], "id" : "israel"}},
		{"type":"Feature", "properties":{"name":"Italy", "noCamps": 31, "lily": 18, "unconfirmed": 0}, "geometry":{"type":"Point", "coordinates": [12.480469,42.585444], "id" : "italy"}},
		{"type":"Feature", "properties":{"name":"Japan", "noCamps": 88, "lily": 34, "unconfirmed": 0}, "geometry":{"type":"Point", "coordinates": [139.394531, 36.809285], "id" : "japan"}},
		{"type":"Feature", "properties":{"name":"Johnston Atoll", "noCamps": 1, "lily": 0, "unconfirmed": 0}, "geometry":{"type":"Point", "coordinates": [-169.508057, 16.741428], "id" : "johnston atoll"}},
		{"type":"Feature", "properties":{"name":"Jordan", "noCamps": 0, "lily": 2, "unconfirmed": 0}, "geometry":{"type":"Point", "coordinates": [36.5625, 31.090574], "id" : "jordan"}},
		{"type":"Feature", "properties":{"name":"Kazkhstan", "noCamps": 0, "lily": 0, "unconfirmed": 1}, "geometry":{"type":"Point", "coordinates": [67.5, 47.665387], "id" : "kazkhstan"}},
		{"type":"Feature", "properties":{"name":"Kenya", "noCamps": 1, "lily": 2, "unconfirmed": 0}, "geometry":{"type":"Point", "coordinates": [37.265625, 0.35156], "id" : "kenya"}},
		{"type":"Feature", "properties":{"name":"Republic of Korea", "noCamps": 61, "lily": 21, "unconfirmed": 0}, "geometry":{"type":"Point", "coordinates": [127.814941, 36.75649], "id" : "korea"}},
			{"type":"Feature", "properties":{"name":"Norway", "noCamps": 1, "lily": 1, "unconfirmed": 0}, "geometry":{"type":"Point", "coordinates": [8.964844, 60.930432], "id" : "norway"}},
		{"type":"Feature", "properties":{"name":"Oman", "noCamps": 7, "lily": 0, "unconfirmed": 0}, "geometry":{"type":"Point", "coordinates": [56.25, 19.973349], "id" : "oman"}},
		{"type":"Feature", "properties":{"name":"Pakistan", "noCamps": 0, "lily": 7, "unconfirmed": 0}, "geometry":{"type":"Point", "coordinates": [69.082031, 29.382175], "id" : "pakistan"}},
		{"type":"Feature", "properties":{"name":"Peru", "noCamps": 0, "lily": 2, "unconfirmed": 0}, "geometry":{"type":"Point", "coordinates": [-74.53125, -10.833306], "id" : "peru"}},
		{"type":"Feature", "properties":{"name":"Philippines", "noCamps": 0, "lily": 7, "unconfirmed": 0}, "geometry":{"type":"Point", "coordinates": [122.563477, 13.282719], "id" : "philippines"}},
		{"type":"Feature", "properties":{"name":"Poland", "noCamps": 0, "lily": 2, "unconfirmed": 0}, "geometry":{"type":"Point", "coordinates": [19.423828, 52.187405], "id" : "poland"}},
		{"type":"Feature", "properties":{"name":"Portugal", "noCamps": 9, "lily": 9, "unconfirmed": 0}, "geometry":{"type":"Point", "coordinates": [-8.261719, 39.909736], "id" : "portugal"}},
		{"type":"Feature", "properties":{"name":"Puerto Rico", "noCamps": 24, "lily": 13, "unconfirmed": 0}, "geometry":{"type":"Point", "coordinates": [-66.42334, 18.20848], "id" : "puerto rico"}},
		{"type":"Feature", "properties":{"name":"Qatar", "noCamps" : 7, "lily": 0, "unconfirmed": 0}, "geometry":{"type":"Point", "coordinates": [51.196287062500005, 25.28443774698303], "id" : "qatar"}},
		{"type":"Feature", "properties":{"name":"Romania", "noCamps" : 3, "lily": 2, "unconfirmed": 0}, "geometry":{"type":"Point", "coordinates": [24.609375, 45.644768], "id" : "romania"}},
		{"type":"Feature", "properties":{"name":"Sao Tome And Principe", "noCamps" : 0, "lily": 0, "unconfirmed": 1}, "geometry":{"type":"Point", "coordinates": [6.591797, 0.241699], "id" : "sao tome and principe"}},
		{"type":"Feature", "properties":{"name":"Saudi Arabia", "noCamps" : 0, "lily": 10, "unconfirmed": 0}, "geometry":{"type":"Point", "coordinates": [45, 22.836946], "id" : "saudi arabia"}},
		{"type":"Feature", "properties":{"name":"Senegal", "noCamps" : 0, "lily": 1, "unconfirmed": 0}, "geometry":{"type":"Point", "coordinates": [-14.611816, 14.562318], "id" : "senegal"}},
		{"type":"Feature", "properties":{"name":"Seychelles", "noCamps" : 0, "lily": 1, "unconfirmed": 0}, "geometry":{"type":"Point", "coordinates": [55.48645, -4.680455], "id" : "seychelles"}},
		{"type":"Feature", "properties":{"name":"Sierra Leone", "noCamps" : 0, "lily": 0, "unconfirmed": 1}, "geometry":{"type":"Point", "coordinates": [-11.865234, 8.015716], "id" : "sierra leone"}},
		{"type":"Feature", "properties":{"name":"Singapore", "noCamps" : 1, "lily": 1, "unconfirmed": 0}, "geometry":{"type":"Point", "coordinates": [103.83728, 1.34021], "id" : "singapore"}},
		{"type":"Feature", "properties":{"name":"Somalia", "noCamps" : 0, "lily": 2, "unconfirmed": 0}, "geometry":{"type":"Point", "coordinates": [46.054688, 4.740675], "id" : "somalia"}},
		{"type":"Feature", "properties":{"name":"South Africa", "noCamps" : 0, "lily": 0, "unconfirmed": 1}, "geometry":{"type":"Point", "coordinates": [24.082031, -28.304381], "id" : "s. africa"}},
		{"type":"Feature", "properties":{"name":"South Sudan", "noCamps" : 0, "lily": 1, "unconfirmed": 0}, "geometry":{"type":"Point", "coordinates": [30.410156, 6.489983], "id" : "s. sudan"}},
		{"type":"Feature", "properties":{"name":"Spain", "noCamps" : 2, "lily": 2, "unconfirmed" : 0}, "geometry":{"type":"Point", "coordinates": [-3.427734, 39.943436], "id" : "spain"}},
		{"type":"Feature", "properties":{"name":"Sri Lanka", "noCamps" : 0, "lily": 0, "unconfirmed": 1}, "geometry":{"type":"Point", "coordinates": [80.859375, 7.885147], "id" : "sri lanka"}},
		{"type":"Feature", "properties":{"name":"Tanzania", "noCamps" : 0, "lily": 0, "unconfirmed": 1}, "geometry":{"type":"Point", "coordinates": [35.332031, -7.536764], "id" : "tanzania"}},
		{"type":"Feature", "properties":{"name":"Thailand", "noCamps" : 0, "lily": 2, "unconfirmed": 0}, "geometry":{"type":"Point", "coordinates": [100.722656, 15.284185], "id" : "thailand"}},
		{"type":"Feature", "properties":{"name":"Tunisia", "noCamps" : 0, "lily": 0, "unconfirmed": 1}, "geometry":{"type":"Point", "coordinates": [9.316406, 34.161818], "id" : "tunisia"}},
		{"type":"Feature", "properties":{"name":"Turkey", "noCamps" : 7, "lily": 8, "unconfirmed": 0}, "geometry":{"type":"Point", "coordinates": [35.551758, 39.232253], "id" : "turkey"}},
		{"type":"Feature", "properties":{"name":"Uganda", "noCamps" : 0, "lily": 2, "unconfirmed": 0}, "geometry":{"type":"Point", "coordinates": [32.167969, 1.054628], "id" : "uganda"}},
		{"type":"Feature", "properties":{"name":"United Arab Emirates", "noCamps" : 3, "lily": 0, "unconfirmed":0}, "geometry":{"type":"Point","coordinates":[54.316404250000005, 23.372513822359483], "id" : "uae"}},
		{"type":"Feature", "properties":{"name":"Vietnam", "noCamps" : 0, "lily": 0, "unconfirmed": 1}, "geometry":{"type":"Point", "coordinates": [108.303223, 13.517838], "id" : "vietnam"}},
		{"type":"Feature", "properties":{"name":"United Kingdom", "noCamps" : 16, "lily": 11, "unconfirmed": 0}, "geometry":{"type":"Point", "coordinates": [-1.933594, 54.085173], "id" : "uk"}},
		{"type":"Feature", "properties":{"name":"Virgin Islands", "noCamps" : 3, "lily": 4, "unconfirmed": 0}, "geometry":{"type":"Point", "coordinates": [-64.786377, 17.738223], "id" : "virgin is"}},
		{"type":"Feature", "properties":{"name":"Wake Islands", "noCamps" : 0, "lily": 1, "unconfirmed": 0}, "geometry":{"type":"Point", "coordinates": [166.632385, 19.289109], "id" : "wake islands"}},
		{"type":"Feature", "properties":{"name":"Yemen", "noCamps" : 0, "lily": 0, "unconfirmed": 1}, "geometry":{"type":"Point", "coordinates": [47.724609, 15.707663], "id" : "yemen"}},
		{"type":"Feature", "properties":{"name":"Zambia", "noCamps" : 0, "lily": 0, "unconfirmed": 1}, "geometry":{"type":"Point", "coordinates": [27.597656, -13.966054], "id" : "zambia"}}
